City_ID,City,Lat,Lng,Max Temp,Humidity,Cloudiness,Wind Speed,Country,Date
0,rikitea,-23.1203,-134.9692,79.02,72,5,14.47,PF,1675229087
1,kristiansund,63.1115,7.732,28.45,80,100,3.44,NO,1675229088
2,barrow,71.2906,-156.7887,-5.78,77,0,25.32,US,1675228940
3,sistranda,63.7256,8.834,26.56,69,100,11.45,NO,1675229089
4,puerto ayora,-0.7393,-90.3518,75.54,92,73,4.88,EC,1675229090
5,yichang,30.7144,111.2847,62.74,22,0,11.54,CN,1675229091
6,bethel,41.3712,-73.414,28.76,60,100,9.22,US,1675229091
7,pangkalanbuun,-2.6833,111.6167,86.65,65,100,4.14,ID,1675229092
8,palana,59.1167,159.9667,11.62,91,100,8.88,RU,1675229092
9,najran,17.4924,44.1277,63.25,33,55,5.88,SA,1675229093
10,olafsvik,64.8945,-23.7142,29.79,88,100,13.82,IS,1675229094
11,khatanga,71.9667,102.5,-45.36,100,62,2.15,RU,1675229095
12,carutapera,-1.195,-46.02,74.41,94,100,1.97,BR,1675229096
13,albany,42.6001,-73.9662,19.36,64,98,2.93,US,1675229088
14,wairoa,-39.0333,177.3667,70.56,79,88,4.0,NZ,1675229097
15,bilibino,68.0546,166.4372,3.24,90,97,5.84,RU,1675229097
16,lebu,-37.6167,-73.65,56.48,86,0,20.71,CL,1675229098
17,airai,-8.9266,125.4092,70.09,82,82,2.89,TL,1675229099
18,sovetsk,55.0839,21.8785,35.51,98,100,15.19,RU,1675229100
19,port hardy,50.6996,-127.4199,37.58,93,100,16.11,CA,1675229100
20,provideniya,64.3833,-173.3,24.91,100,100,4.47,RU,1675229101
21,avarua,-21.2078,-159.775,78.85,83,75,16.11,CK,1675229102
22,atuona,-9.8,-139.0333,79.02,77,64,23.85,PF,1675229103
23,lorengau,-2.0226,147.2712,82.71,75,57,7.81,PG,1675229104
24,cam ranh,11.9214,109.1591,76.96,78,75,5.75,VN,1675229105
25,talaya,61.3833,152.75,-12.28,98,96,0.65,RU,1675229106
26,yellowknife,62.456,-114.3525,-26.88,68,0,13.8,CA,1675229099
27,coquimbo,-29.9533,-71.3436,62.33,100,75,2.3,CL,1675228977
28,hobart,-42.8794,147.3294,67.26,47,75,16.11,AU,1675229108
29,mataura,-46.1927,168.8643,68.72,78,100,2.89,NZ,1675229108
30,saint-philippe,-21.3585,55.7679,80.19,85,93,11.07,RE,1675228916
31,mitsamiouli,-11.3847,43.2844,81.73,75,43,5.57,KM,1675229110
32,husavik,66.0449,-17.3389,28.49,95,100,10.83,IS,1675228930
33,hilo,19.7297,-155.09,76.28,89,40,6.91,US,1675228963
34,coffs harbour,-30.3,153.1333,82.13,69,23,8.05,AU,1675229111
35,plettenberg bay,-34.0527,23.3716,68.16,77,0,6.76,ZA,1675229112
36,port alfred,-33.5906,26.891,72.18,95,3,5.84,ZA,1675229113
37,saskylakh,71.9167,114.0833,-17.82,97,100,17.31,RU,1675228943
38,jacmel,18.2342,-72.5347,75.04,76,29,4.59,HT,1675229114
39,pevek,69.7008,170.3133,6.33,84,36,3.87,RU,1675229115
40,kadom,54.5592,42.4675,17.69,95,69,6.53,RU,1675229116
41,do gonbadan,30.3586,50.7981,50.09,93,100,4.61,IR,1675229117
42,arraial do cabo,-22.9661,-42.0278,75.43,90,91,23.69,BR,1675229117
43,vaitape,-16.5167,-151.75,82.0,73,99,14.18,PF,1675229118
44,atambua,-9.1061,124.8925,82.83,69,48,6.24,ID,1675229036
45,tutoia,-2.7619,-42.2744,76.66,90,100,8.39,BR,1675229119
46,buraydah,26.326,43.975,54.05,54,28,7.52,SA,1675229078
47,concarneau,47.875,-3.9225,47.19,84,1,5.39,FR,1675229121
48,thompson,55.7435,-97.8558,-29.04,75,20,2.3,CA,1675228962
49,nuevo progreso,23.1667,-97.95,53.47,75,95,3.0,MX,1675229123
50,tuktoyaktuk,69.4541,-133.0374,-38.2,67,0,2.3,CA,1675228919
51,vardo,70.3705,31.1107,30.18,100,100,28.77,NO,1675229124
52,zhangjiakou,40.81,114.8794,21.6,24,16,13.0,CN,1675229125
53,broome,42.2506,-75.833,18.66,82,0,4.61,US,1675229125
54,kodiak,57.79,-152.4072,36.91,87,100,8.05,US,1675229126
55,nikolskoye,59.7035,30.7861,31.91,85,99,7.27,RU,1675229126
56,talcahuano,-36.7167,-73.1167,54.21,84,0,9.26,CL,1675229127
57,naze,28.3667,129.4833,68.92,67,83,13.76,JP,1675229069
58,talnakh,69.4865,88.3972,4.21,95,100,10.38,RU,1675229128
59,hermanus,-34.4187,19.2345,65.8,90,4,3.44,ZA,1675229129
60,balikpapan,-1.2675,116.8289,83.39,70,20,3.44,ID,1675229129
61,new norfolk,-42.7826,147.0587,66.92,31,54,5.01,AU,1675229130
62,narsaq,60.9167,-46.05,17.82,94,100,4.32,GL,1675229131
63,bluff,-46.6,168.3333,61.99,90,100,10.18,NZ,1675229131
64,norwich,52.6278,1.2983,41.36,80,89,18.41,GB,1675229132
65,carnarvon,-24.8667,113.6333,81.45,67,44,14.25,AU,1675229133
66,port elizabeth,-33.918,25.5701,73.31,89,0,10.0,ZA,1675229133
67,san vicente de canete,-13.0751,-76.3835,71.89,86,90,3.15,PE,1675229134
68,shaoyang,27.2315,111.4525,69.53,28,0,8.05,CN,1675229134
69,karratha,-20.7377,116.8463,95.63,45,18,17.09,AU,1675229135
70,punta arenas,-53.15,-70.9167,53.71,66,20,27.63,CL,1675228930
71,turbat,26.0023,63.044,66.16,47,0,2.04,PK,1675229136
72,boromo,11.75,-2.9333,70.72,8,99,6.2,BF,1675229137
73,ushuaia,-54.8,-68.3,56.86,51,75,12.66,AR,1675229137
74,klaksvik,62.2266,-6.5889999999999995,36.52,86,96,28.19,FO,1675229091
75,kamina,-8.7386,24.9906,63.72,95,95,2.28,CD,1675229139
76,beringovskiy,63.05,179.3167,19.4,99,60,7.56,RU,1675229139
77,aksu,41.1231,80.2644,22.21,68,100,1.21,CN,1675229140
78,sabang,5.8933,95.3214,79.83,72,99,4.07,ID,1675229140
79,chuy,-33.6971,-53.4616,69.75,93,6,5.08,UY,1675228915
80,sokoni,-6.4333,39.55,79.3,80,22,6.98,TZ,1675229141
81,ranong,9.9658,98.6348,85.93,55,36,2.73,TH,1675229142
82,busselton,-33.65,115.3333,81.81,32,0,9.33,AU,1675229143
83,agadez,19.75,10.25,52.3,36,29,9.1,NE,1675229144
84,napa,38.4832,-122.3344,42.13,53,22,1.19,US,1675229134
85,kapaa,22.0752,-159.319,75.18,90,20,10.36,US,1675229145
86,vila franca do campo,37.7167,-25.4333,54.01,83,38,7.52,PT,1675229145
87,cumbitara,1.6517,-77.5823,58.8,96,100,0.78,CO,1675229146
88,cabo san lucas,22.8909,-109.9124,64.62,65,66,3.67,MX,1675228964
89,honiara,-9.4333,159.95,83.86,73,82,6.93,SB,1675229147
90,mitchell,43.7094,-98.0298,-0.26,80,0,4.61,US,1675229147
91,willowmore,-33.2926,23.4895,72.63,60,0,1.48,ZA,1675229148
92,mangrol,21.1167,70.1167,73.58,38,87,14.47,IN,1675229148
93,mataram,-8.5833,116.1167,88.61,77,96,3.33,ID,1675229149
94,kamenka,51.3223,42.7678,26.69,93,100,8.72,RU,1675228953
95,kavaratti,10.5669,72.642,79.84,74,83,11.65,IN,1675229096
96,san patricio,28.017,-97.5169,39.07,85,100,12.28,US,1675229151
97,orsha,54.5153,30.4053,28.65,91,99,8.01,BY,1675229151
98,castro,-24.7911,-50.0119,63.03,98,100,2.62,BR,1675228920
99,yinchuan,38.4681,106.2731,25.9,19,100,8.28,CN,1675229152
100,bredasdorp,-34.5322,20.0403,67.03,88,9,4.85,ZA,1675229153
101,sulphur springs,33.1385,-95.6011,28.35,93,100,0.0,US,1675229154
102,vila real,41.3006,-7.7441,36.59,71,17,4.59,PT,1675229155
103,orlik,52.5178,99.825,2.75,83,34,1.23,RU,1675229155
104,faanui,-16.4833,-151.75,81.99,73,100,14.25,PF,1675229156
105,torbay,47.6666,-52.7314,33.89,93,100,25.32,CA,1675228966
106,kruisfontein,-34.0033,24.7314,66.88,74,0,9.57,ZA,1675229097
107,pisco,-13.7,-76.2167,73.45,78,0,10.36,PE,1675229157
108,dali,25.7,100.1833,67.21,23,5,6.89,CN,1675229158
109,clyde river,70.4692,-68.5914,-32.57,68,0,6.91,CA,1675228953
110,svetlaya,46.5389,138.3297,16.72,50,100,3.15,RU,1675229159
111,tasiilaq,65.6145,-37.6368,12.36,72,96,7.99,GL,1675229159
112,brae,60.3964,-1.3530000000000002,41.54,95,98,39.08,GB,1675229160
113,anadyr,64.75,177.4833,27.1,93,40,15.66,RU,1675229161
114,aleysk,52.4926,82.7822,16.5,83,100,2.75,RU,1675229161
115,kahului,20.8947,-156.47,75.85,88,20,1.99,US,1675229162
116,porto novo,6.4965,2.6036,76.82,89,48,0.92,BJ,1675229163
117,qaanaaq,77.484,-69.3632,-8.43,51,78,7.31,GL,1675229164
118,cape town,-33.9258,18.4232,72.37,87,40,10.36,ZA,1675229165
119,kavieng,-2.5744,150.7967,83.1,72,93,8.59,PG,1675229166
120,mecca,21.4267,39.8261,70.03,65,26,6.71,SA,1675228901
121,aasiaat,68.7098,-52.8699,-11.99,99,95,3.4,GL,1675229167
122,pemangkat,1.1667,108.9667,81.28,77,98,6.6,ID,1675229168
123,hualmay,-11.0964,-77.6139,71.76,79,100,6.22,PE,1675229169
124,cidreira,-30.1811,-50.2056,74.23,92,0,3.06,BR,1675229170
125,inhambane,-23.865,35.3833,80.58,74,20,0.0,MZ,1675229171
126,quatre cocos,-20.2078,57.7625,82.51,70,98,14.0,MU,1675229160
127,bengkulu,-3.8004,102.2655,83.32,69,100,9.93,ID,1675229172
128,olinda,-8.0089,-34.8553,80.33,74,75,5.75,BR,1675228948
129,taybad,34.74,60.7756,51.24,44,100,30.69,IR,1675229174
130,iqaluit,63.7506,-68.5145,-15.07,76,75,16.11,CA,1675229174
131,piacabucu,-10.4056,-36.4344,76.64,79,100,5.01,BR,1675229176
132,puerto lempira,15.2667,-83.7667,74.44,89,5,9.08,HN,1675229176
133,casablanca,33.5928,-7.6192,44.62,68,7,4.65,MA,1675229177
134,college,64.8569,-147.8028,15.08,78,100,5.75,US,1675229178
135,tabuk,17.4189,121.4443,80.71,64,26,6.49,PH,1675229179
136,hokitika,-42.7167,170.9667,68.13,86,100,2.71,NZ,1675229179
137,hami,42.8,93.45,30.54,28,96,1.34,CN,1675229180
138,lebyazhye,55.2689,66.4947,8.62,89,72,7.67,RU,1675229181
139,sao miguel do araguaia,-13.275,-50.1628,71.22,89,40,3.76,BR,1675229182
140,tezu,27.9167,96.1667,81.45,20,92,4.36,IN,1675229182
141,ulagan,50.6321,87.9563,12.7,68,100,1.39,RU,1675229183
142,martapura,-3.4167,114.85,86.09,66,40,5.75,ID,1675229184
143,saldanha,-33.0117,17.9442,59.05,91,0,10.92,ZA,1675228936
144,belfast,54.5833,-5.9333,46.38,77,75,18.41,GB,1675229185
145,zelenoborskiy,66.845,32.3622,4.78,97,81,3.8,RU,1675229186
146,sao filipe,14.8961,-24.4956,70.56,71,87,10.29,CV,1675229187
147,amahai,-3.3333,128.9167,84.24,74,87,4.27,ID,1675229187
148,flinders,-34.5833,150.8552,79.05,68,4,10.51,AU,1675229158
149,ponta pora,-22.5361,-55.7256,67.51,95,100,3.56,BR,1675229092
150,umm lajj,25.0213,37.2685,64.85,47,22,7.96,SA,1675229189
151,jagatsinghapur,20.2667,86.1667,79.16,23,96,9.13,IN,1675229190
152,aklavik,68.2191,-135.0107,-30.73,100,69,6.08,CA,1675229190
153,longyearbyen,78.2186,15.6401,17.44,62,40,8.05,SJ,1675229191
154,jamestown,42.097,-79.2353,18.99,91,0,6.91,US,1675228981
155,kimovsk,53.9716,38.5319,23.99,96,100,7.85,RU,1675229192
156,butaritari,3.0707,172.7902,80.35,79,91,17.94,KI,1675228921
157,sterling,39.0062,-77.4286,35.6,90,100,6.91,US,1675228941
158,koumac,-20.5667,164.2833,82.63,56,71,7.18,NC,1675229193
159,namibe,-15.1961,12.1522,71.83,81,100,4.18,AO,1675229194
160,port hedland,-20.3167,118.5667,95.05,59,23,14.97,AU,1675229195
161,port lincoln,-34.7333,135.8667,66.43,54,88,14.43,AU,1675229195
162,vestmannaeyjar,63.4427,-20.2734,32.07,69,68,4.81,IS,1675229196
163,victoria,22.2855,114.1577,76.96,85,45,1.99,HK,1675228956
164,harper,4.375,-7.7169,78.35,86,65,2.21,LR,1675229130
165,copiapo,-27.3667,-70.3333,60.49,73,5,1.68,CL,1675229197
166,adrar,20.5022,-10.0711,58.15,15,35,10.45,MR,1675229198
167,camacha,33.0833,-16.3333,56.62,58,20,13.8,PT,1675229199
168,toamasina,-18.1667,49.3833,77.0,88,75,9.22,MG,1675229033
169,khani,41.9563,42.9566,24.37,70,80,2.42,GE,1675229200
170,ponta delgada,37.7333,-25.6667,54.32,76,20,6.91,PT,1675229200
171,shetpe,44.1667,52.1167,34.57,61,100,4.74,KZ,1675229201
172,serebryansk,49.6925,83.2892,13.78,80,100,5.08,KZ,1675229202
173,margate,51.3813,1.3862,41.7,79,86,4.0,GB,1675229202
174,souillac,-20.5167,57.5167,82.78,74,75,8.05,MU,1675229203
175,raudeberg,61.9875,5.1352,34.47,1,100,11.61,NO,1675229203
176,tual,-5.6667,132.75,83.12,76,88,14.61,ID,1675229204
177,vaini,-21.2,-175.2,82.56,83,75,9.22,TO,1675229205
178,isangel,-19.55,169.2667,82.62,74,100,3.78,VU,1675229205
179,krasnoselkup,65.7,82.4667,2.93,95,100,14.34,RU,1675229206
180,waingapu,-9.6567,120.2641,86.81,70,94,11.34,ID,1675229206
181,sechura,-5.5569,-80.8222,74.97,72,95,4.25,PE,1675229207
182,chikwawa,-16.0335,34.8009,77.67,89,67,3.2,MW,1675229208
183,vila velha,-20.3297,-40.2925,75.15,88,20,3.44,BR,1675228952
184,prabumulih,-3.45,104.25,83.88,69,100,5.37,ID,1675229209
185,leningradskiy,69.3833,178.4167,5.36,96,100,9.91,RU,1675229209
186,mar del plata,-38.0023,-57.5575,70.09,86,100,3.0,AR,1675229210
187,tazovskiy,67.4667,78.7,8.17,95,100,17.67,RU,1675229211
188,evanston,42.0411,-87.6901,8.1,66,0,7.0,US,1675228934
189,chapais,49.7834,-74.8492,-6.02,91,100,12.59,CA,1675229212
190,aden,12.7794,45.0367,75.4,62,12,14.72,YE,1675229212
191,baker city,44.7749,-117.8344,18.59,73,0,6.91,US,1675229213
192,grand gaube,-20.0064,57.6608,82.8,77,85,7.0,MU,1675229213
193,lata,40.1629,-8.3327,36.0,77,1,3.94,PT,1675229214
194,gubbi,13.3106,76.9444,79.75,39,76,11.65,IN,1675229215
195,teguise,29.0605,-13.564,59.22,63,0,14.97,ES,1675229213
196,aketi,2.7388,23.7833,67.82,78,40,3.11,CD,1675229216
197,hirara,24.8,125.2833,75.06,64,75,10.36,JP,1675229217
198,qaqortoq,60.7167,-46.0333,9.5,91,100,5.77,GL,1675228972
199,norman wells,65.282,-126.8329,-36.36,74,20,0.0,CA,1675229218
200,encruzilhada do sul,-30.5439,-52.5219,66.85,92,0,4.23,BR,1675229219
201,fortuna,40.5982,-124.1573,38.32,93,0,8.05,US,1675229071
202,kortkeros,61.8106,51.5806,28.4,91,96,10.85,RU,1675229220
203,luancheng,37.8792,114.6517,39.36,17,5,3.74,CN,1675229221
204,novodugino,55.6305,34.2842,27.32,89,100,6.58,RU,1675229222
205,loubomo,-4.1997,12.6739,70.34,98,89,2.21,CG,1675229222
206,nisia floresta,-6.0911,-35.2086,76.01,79,95,7.36,BR,1675229223
207,hithadhoo,-0.6,73.0833,81.1,73,16,11.52,MV,1675229224
208,codrington,-38.2667,141.9667,63.21,43,99,12.3,AU,1675229031
209,santo domingo,18.5001,-69.9886,73.04,89,4,5.99,DO,1675229119
210,ulladulla,-35.35,150.4667,73.85,67,13,9.51,AU,1675229225
211,bansdih,25.8833,84.2167,69.48,45,0,13.27,IN,1675229227
212,moree,-29.4667,149.85,91.69,28,21,10.94,AU,1675229227
213,turkistan,43.0,68.0,39.7,74,88,10.31,KZ,1675229009
214,fallon,39.4735,-118.7774,24.67,80,40,0.0,US,1675229228
215,harwich,51.9419,1.2844,41.5,80,74,10.0,GB,1675229229
216,muncar,-8.4333,114.3333,87.17,62,86,5.88,ID,1675229230
217,kalmar,56.6616,16.3616,37.96,92,75,6.91,SE,1675229230
218,banting,2.8167,101.5,91.56,63,94,3.29,MY,1675229231
219,sao joao da barra,-21.6403,-41.0511,75.27,88,39,16.84,BR,1675229231
220,russell,32.3502,-85.1999,61.83,94,75,0.0,US,1675228980
221,gari,59.4307,62.3497,19.71,93,73,9.1,RU,1675229232
222,kattivakkam,13.2167,80.3167,82.49,74,93,13.62,IN,1675229233
223,nuuk,64.1835,-51.7216,4.26,88,100,14.0,GL,1675229234
224,houma,29.5958,-90.7195,66.2,93,100,4.61,US,1675229234
225,clarence town,-32.5833,151.7833,82.81,41,26,7.05,AU,1675229235
226,upernavik,72.7868,-56.1549,-4.72,93,100,4.14,GL,1675229235
227,east london,-33.0153,27.9116,74.34,83,0,5.75,ZA,1675228944
228,nanortalik,60.1432,-45.2371,14.18,82,99,6.55,GL,1675229236
229,ribeira grande,38.5167,-28.7,52.77,78,98,5.99,PT,1675229237
230,berdigestyakh,62.0989,126.6992,-21.03,93,100,7.78,RU,1675229238
231,el dorado,38.7666,-120.5177,36.68,79,7,7.87,US,1675229238
232,nanton,50.3501,-113.7687,24.85,89,70,4.05,CA,1675229239
233,lompoc,34.6391,-120.4579,46.58,91,0,3.44,US,1675229240
234,yulara,-25.2406,130.9889,93.34,11,3,15.46,AU,1675229241
235,isla vista,34.4133,-119.861,53.83,69,0,0.0,US,1675228996
236,san matias,-16.3667,-58.4,72.63,96,100,4.54,BO,1675229242
237,shar,49.5886,81.0453,15.93,87,100,11.05,KZ,1675229243
238,togur,58.3631,82.8265,0.93,96,77,4.47,RU,1675229244
239,kailua,21.4022,-157.7394,78.78,87,40,0.0,US,1675229244
240,acari,-15.4311,-74.6158,74.03,92,100,2.46,PE,1675229245
241,mahebourg,-20.4081,57.7,82.69,74,75,8.05,MU,1675229246
242,bojnurd,37.4747,57.32899999999999,46.35,76,100,6.91,IR,1675229247
243,tiksi,71.6872,128.8694,-0.65,99,100,7.67,RU,1675229247
244,honningsvag,70.9821,25.9704,33.55,75,40,28.77,NO,1675229248
245,bako,5.7833,36.5667,71.58,45,34,2.68,ET,1675229248
246,katangli,51.7102,143.2326,5.83,76,28,9.19,RU,1675229249
247,dikson,73.5069,80.5464,-9.98,92,43,7.94,RU,1675229249
248,lufilufi,-13.8745,-171.5986,77.79,75,100,16.24,WS,1675229250
249,nizhniy tsasuchey,50.5167,115.1333,9.68,65,1,12.06,RU,1675229251
250,cap malheureux,-19.9842,57.6142,82.47,77,78,7.0,MU,1675229251
251,djougou,9.7085,1.666,72.64,15,78,4.43,BJ,1675229252
252,villablino,42.9393,-6.3194,30.51,99,10,1.01,ES,1675229224
253,acarau,-2.8856,-40.12,77.02,89,51,11.43,BR,1675229253
254,cervo,43.6702,-7.4101,46.76,85,62,6.24,ES,1675229254
255,ancud,-41.8697,-73.8203,48.61,88,0,2.82,CL,1675229254
256,fuerte olimpo,-21.0415,-57.8738,70.93,96,99,3.42,PY,1675229059
257,cherskiy,68.75,161.3,-12.66,100,57,6.11,RU,1675229255
258,lazaro cardenas,17.9583,-102.2,72.46,87,2,4.18,MX,1675229256
259,srednekolymsk,67.45,153.6833,-19.89,94,97,2.15,RU,1675229257
260,shache,38.4167,77.2406,26.15,57,97,2.73,CN,1675229257
261,peniche,39.3558,-9.3811,44.46,93,0,7.92,PT,1675229258
262,chapleau,47.8405,-83.4034,1.51,93,31,8.97,CA,1675229258
263,dawson creek,55.7666,-120.2362,10.04,85,100,5.75,CA,1675229259
264,faya,18.3851,42.4509,55.92,51,63,4.09,SA,1675229260
265,mayskiy,47.6931,40.1025,31.41,98,100,3.29,RU,1675229261
266,labuhan,-6.8844,112.2051,82.6,77,100,9.8,ID,1675229261
267,chokurdakh,70.6333,147.9167,-2.69,97,100,7.83,RU,1675229090
268,ishinomaki,38.4167,141.3,51.8,50,91,16.13,JP,1675228973
269,mindelo,16.8901,-24.9804,69.35,68,75,20.71,CV,1675229263
270,severo-kurilsk,50.6789,156.125,25.11,58,64,4.79,RU,1675229263
271,grants pass,42.43899999999999,-123.3284,36.48,70,0,0.0,US,1675229264
272,narasannapeta,18.4167,84.05,83.5,38,48,9.42,IN,1675229265
273,vikhorevka,56.1201,101.1636,2.79,91,100,2.17,RU,1675229265
274,nome,64.5011,-165.4064,21.27,100,100,0.0,US,1675229199
275,verkhniy landekh,56.8389,42.5994,23.5,94,100,9.15,RU,1675229266
276,mackenzie,55.2999,-123.1698,19.62,93,100,2.3,CA,1675229267
277,sorland,67.667,12.6934,37.26,64,67,9.06,NO,1675229268
278,rundu,-17.9333,19.7667,66.16,94,100,3.71,,1675228999
279,zheleznodorozhnyy,55.7503,38.0042,32.52,93,100,6.44,RU,1675229269
280,verkhoyansk,67.5447,133.385,-18.69,97,100,2.71,RU,1675229269
281,guerrero negro,27.9769,-114.0611,56.07,61,10,9.46,MX,1675229270
282,luderitz,-26.6481,15.1594,60.33,89,6,10.65,,1675229270
283,puri,19.8,85.85,79.32,33,95,8.23,IN,1675229271
284,makat,47.6469,53.3463,25.39,55,34,10.47,KZ,1675229272
285,deep river,46.1001,-77.4995,-13.41,100,29,0.6,CA,1675229272
286,kaeo,-35.1,173.7833,76.32,81,99,7.18,NZ,1675229273
287,vao,-22.6667,167.4833,79.47,77,86,13.22,NC,1675229273
288,tabas,33.5959,56.9244,59.05,37,100,14.47,IR,1675229274
289,valdivia,-39.8142,-73.2459,53.69,75,0,3.02,CL,1675229196
290,dukat,62.55,155.55,-13.13,100,95,0.69,RU,1675229275
291,praia da vitoria,38.7333,-27.0667,54.75,100,75,9.35,PT,1675229276
292,mnogovershinnyy,53.9353,139.9242,-5.39,76,57,6.2,RU,1675229277
293,krasnoyarka,55.3333,73.1167,-2.06,95,46,6.35,RU,1675229277
294,mount isa,-20.7333,139.5,89.37,45,40,5.75,AU,1675229278
295,jackson,42.4165,-122.8345,35.04,52,0,0.0,US,1675228989
296,dondo,-19.6094,34.7431,81.91,84,100,4.25,MZ,1675229279
297,neryungri,56.6709,124.6491,-6.95,86,100,10.8,RU,1675229279
298,kushiro,42.975,144.3747,27.55,59,75,3.44,JP,1675229280
299,bridlington,54.0831,-0.1919,42.89,75,98,28.92,GB,1675229281
300,esmeraldas,-19.7625,-44.3139,70.66,92,65,3.58,BR,1675229281
301,hasaki,35.7333,140.8333,57.29,46,51,28.79,JP,1675229217
302,svetlogorsk,52.6333,29.7333,27.64,95,99,8.99,BY,1675229282
303,petropavlovsk-kamchatskiy,53.0452,158.6483,16.39,53,0,4.47,RU,1675229283
304,port macquarie,-31.4333,152.9167,81.9,67,6,13.31,AU,1675228987
305,pangnirtung,66.1451,-65.7125,-22.86,75,100,3.74,CA,1675229140
306,marzuq,14.4,46.4667,67.68,26,54,3.51,YE,1675229285
307,yar-sale,66.8333,70.8333,16.03,95,100,15.26,RU,1675229286
308,kyra,49.5776,111.9753,7.97,65,27,3.8,RU,1675229288
309,camocim,-2.9022,-40.8411,75.4,92,57,9.06,BR,1675229013
310,kelso,46.1468,-122.9084,34.9,79,0,0.0,US,1675229290
311,georgetown,5.4112,100.3354,87.73,74,20,6.91,MY,1675229290
312,zhigansk,66.7697,123.3711,-19.3,97,100,8.05,RU,1675229105
313,saint-donat-de-montcalm,46.3187,-74.2219,-16.74,100,70,2.21,CA,1675229292
314,berezovyy,51.6667,135.7,2.97,76,12,2.46,RU,1675229293
315,kangaatsiaq,68.3065,-53.4641,-6.32,96,71,6.42,GL,1675229294
316,wageningen,51.9667,5.6667,44.1,80,100,14.97,NL,1675229294
317,the valley,18.217,-63.0578,76.1,68,0,17.34,AI,1675229295
318,hamilton,39.1834,-84.5333,24.91,69,75,10.36,US,1675229292
319,lagoa,39.05,-27.9833,56.89,68,98,11.39,PT,1675229296
320,vung tau,10.345999999999998,107.0843,82.38,65,84,3.0,VN,1675229297
321,jaleswar,26.6471,85.8008,70.88,46,0,12.59,NP,1675229298
322,stanghelle,60.5528,5.7357,39.65,96,100,4.52,NO,1675229299
323,sweetwater,25.7634,-80.3731,75.99,89,0,5.75,US,1675229301
324,lavrentiya,65.5833,-171.0,8.83,98,94,5.01,RU,1675229301
325,merke,42.8728,73.1786,35.56,75,39,3.8,KZ,1675229302
326,erzin,36.9559,36.2,43.7,76,100,5.57,TR,1675229120
327,port shepstone,-30.7414,30.455,74.32,85,100,14.45,ZA,1675229304
328,san quintin,30.4833,-115.95,55.13,63,66,1.16,MX,1675229304
329,amapa,1.0,-52.0,69.75,100,94,2.35,BR,1675229305
330,ilulissat,69.2167,-51.1,1.42,66,75,9.22,GL,1675229306
331,auki,-8.7676,160.7034,84.06,71,89,8.93,SB,1675229306
332,bang saphan,11.2126,99.5117,86.43,43,73,6.31,TH,1675229307
333,canelones,-34.6444,-56.2886,73.49,90,0,6.29,UY,1675229308
334,tuskegee,32.424,-85.6916,61.95,94,98,5.93,US,1675229308
335,chabahar,25.2919,60.643,67.08,63,0,7.0,IR,1675229309
336,grindavik,63.8424,-22.4338,25.27,80,0,4.61,IS,1675229310
337,caravelas,-17.7125,-39.2481,74.16,86,97,3.06,BR,1675229310
338,guozhen,34.3659,107.359,45.19,19,92,2.64,CN,1675229311
339,ilfracombe,51.2093,-4.1134,47.84,84,19,8.99,GB,1675229312
340,zemio,5.0314,25.1361,70.66,32,16,0.29,CF,1675229312
341,gat,31.61,34.7642,53.4,100,63,17.67,IL,1675229085
342,ahipara,-35.1667,173.1667,73.29,76,99,8.3,NZ,1675229314
343,tilichiki,60.4667,166.1,9.34,93,100,7.16,RU,1675229314
344,concordia sagittaria,45.7594,12.8406,38.66,86,2,6.08,IT,1675229315
345,birjand,32.8663,59.2211,48.67,46,100,9.22,IR,1675229315
346,plaridel,14.8872,120.8572,91.08,59,72,10.11,PH,1675229316
347,amravati,20.9333,77.75,76.82,37,0,7.09,IN,1675229317
348,xining,36.6167,101.7667,26.29,25,100,2.75,CN,1675229187
349,macon,39.8667,-88.9668,15.85,57,0,3.44,US,1675229318
350,bouar,5.934,15.595999999999998,70.34,42,87,2.73,CF,1675229318
351,lamu,-2.2717,40.902,79.02,82,10,4.79,KE,1675229319
352,bijie,27.3125,105.2942,52.0,54,0,4.45,CN,1675229319
353,wajima,37.4,136.9,39.88,100,75,11.5,JP,1675229320
354,salalah,17.0151,54.0924,77.09,47,40,8.05,OM,1675229321
355,zorgo,12.2489,-0.6158,72.41,8,100,9.42,BF,1675229321
356,vangaindrano,-23.35,47.6,72.21,86,100,4.38,MG,1675229322
357,port-cartier,50.0334,-66.8654,-2.52,92,9,6.24,CA,1675229322
358,conceicao da barra,-18.5933,-39.7322,73.38,86,62,4.09,BR,1675229323
359,mareeba,-17.0,145.4333,81.32,97,100,3.27,AU,1675229164
360,goiania,-16.6786,-49.2539,71.29,88,40,4.61,BR,1675229247
361,diego de almagro,-26.3667,-70.05,64.22,65,9,2.1,CL,1675229324
362,los llanos de aridane,28.6585,-17.9182,56.12,74,100,11.5,ES,1675229325
363,tatawin,32.9297,10.4518,43.2,58,2,4.23,TN,1675229326
364,muros,42.7762,-9.0603,42.84,88,10,11.88,ES,1675229326
365,jumla,29.2747,82.1838,50.14,23,0,3.15,NP,1675229327
366,seoni,22.0833,79.5333,70.03,35,0,13.85,IN,1675229328
367,rovenki,48.0833,39.3776,30.43,94,99,2.06,UA,1675229328
368,srandakan,-7.9386,110.2506,85.33,66,100,7.7,ID,1675229329
369,jiaojiang,28.6803,121.4428,67.24,42,0,4.85,CN,1675229329
370,doha,25.2867,51.5333,69.78,62,0,20.71,QA,1675229170
371,tosham,28.8833,75.9167,61.66,43,0,10.27,IN,1675229330
372,nurota,40.5614,65.6886,48.16,70,100,8.25,UZ,1675229331
373,rabo de peixe,37.8,-25.5833,53.11,76,20,6.91,PT,1675229332
374,kultayevo,57.8943,55.9392,26.58,73,0,15.99,RU,1675229332
375,berlevag,70.8578,29.0864,33.75,75,100,26.46,NO,1675229333
376,westport,41.1415,-73.3579,32.32,56,100,10.36,US,1675229334
377,kilinochchi,9.3961,80.3982,74.91,92,100,13.0,LK,1675229334
378,katsuura,35.1333,140.3,53.62,58,48,25.19,JP,1675229088
379,ponta do sol,32.6667,-17.1,59.63,63,60,6.29,PT,1675229335
380,kaitangata,-46.2817,169.8464,64.29,87,99,5.5,NZ,1675229336
381,hammerfest,70.6634,23.6821,30.65,93,40,14.97,NO,1675229336
382,manokwari,-0.8667,134.0833,83.21,70,58,4.41,ID,1675229098
383,san jose,37.3394,-121.895,48.85,49,20,4.61,US,1675229198
384,belaya gora,68.5333,146.4167,-12.93,99,98,4.32,RU,1675229338
385,karasburg,-28.0167,18.75,63.34,43,0,5.61,,1675229339
386,kenai,60.5544,-151.2583,31.08,93,100,0.0,US,1675229340
387,toccoa,34.5773,-83.3324,57.92,94,100,6.91,US,1675229341
388,tlatenchi,18.5833,-99.2,75.6,40,0,1.34,MX,1675229342
389,avera,33.194,-82.5271,60.85,96,100,6.17,US,1675229342
390,dossor,47.5272,52.9811,25.61,57,38,10.74,KZ,1675229343
391,sibolga,1.7427,98.7792,80.28,77,100,0.98,ID,1675229344
392,komsomolskiy,40.4272,71.7189,38.12,60,100,2.3,UZ,1675229345
393,wewak,-3.5534,143.6268,84.88,68,53,10.33,PG,1675229346
394,pontianak,-0.0333,109.3333,82.38,78,75,2.3,ID,1675229347
395,zaysan,47.4667,84.8667,11.68,85,99,2.01,KZ,1675229347
396,marsh harbour,26.5412,-77.0636,73.89,76,2,8.61,BS,1675229349
397,taltal,-25.4,-70.4833,67.77,85,67,1.19,CL,1675229350
398,nizhnevartovsk,60.9344,76.5531,12.22,92,40,11.18,RU,1675229351
399,freeport,40.6576,-73.5832,33.26,61,100,13.8,US,1675229352
400,gogrial,8.5332,28.1004,75.29,16,1,4.9,SS,1675229353
401,jibuti,11.5,42.5,68.81,60,2,17.31,DJ,1675229353
402,mount pleasant,32.7941,-79.8626,63.0,98,100,5.75,US,1675229354
403,goundam,16.4145,-3.6708,57.81,11,47,9.22,ML,1675229355
404,pomabamba,-8.8333,-77.4667,51.33,76,100,2.04,PE,1675229356
405,nakhon phanom,17.3333,104.4167,84.0,18,42,0.96,TH,1675229182
406,santa cruz,-17.8,-63.1667,72.86,94,75,8.05,BO,1675229160
407,vanimo,-2.6741,141.3028,83.59,73,95,5.66,PG,1675229358
408,shakawe,-18.3667,21.85,66.65,97,100,4.32,BW,1675229359
409,ushtobe,45.2514,77.9838,24.67,82,97,1.39,KZ,1675229359
410,grand-lahou,5.1367,-5.0242,76.28,91,22,1.19,CI,1675229360
411,saint george,37.1041,-113.5841,29.95,42,0,8.05,US,1675229361
412,asfi,32.2994,-9.2372,54.57,73,100,14.97,MA,1675229361
413,mwingi,-0.9344,38.0601,67.8,74,0,3.11,KE,1675229362
414,borovskoy,53.8,64.15,3.88,87,69,7.58,KZ,1675229363
415,laplace,30.0666,-90.4801,64.98,92,100,8.05,US,1675229363
416,tuatapere,-46.1333,167.6833,67.77,80,98,4.5,NZ,1675229364
417,amga,60.8953,131.9608,-19.75,89,100,6.85,RU,1675229365
418,washington,47.5001,-120.5015,28.33,68,100,1.23,US,1675229366
419,brooks,50.5834,-111.8851,9.03,91,100,2.3,CA,1675229102
420,severnyy,50.677,36.5532,26.64,93,100,4.47,RU,1675229367
421,townsville,-19.25,146.8,85.08,79,75,11.5,AU,1675229219
422,mukhen,48.1,136.1,11.23,77,100,8.19,RU,1675229368
423,gayeri,12.6497,0.4931,71.91,7,100,8.48,BF,1675229368
424,wanaka,-44.7,169.15,74.1,62,100,1.99,NZ,1675229369
425,quesnel,52.9999,-122.5029,25.3,86,100,10.36,CA,1675229370
426,tahta,26.7693,31.5021,48.4,61,0,4.25,EG,1675229370
427,dehloran,32.6941,47.2679,53.33,63,0,5.59,IR,1675229371
428,whitehorse,60.7161,-135.0538,12.97,85,75,6.91,CA,1675229331
429,lewistown,40.5992,-77.5714,31.24,78,100,6.91,US,1675229372
430,black river,18.0264,-77.8487,72.36,82,8,7.0,JM,1675229372
431,namatanai,-3.6667,152.4333,83.1,72,97,9.37,PG,1675229373
432,huarmey,-10.0681,-78.1522,71.6,79,99,5.44,PE,1675229374
433,saint-joseph,-21.3667,55.6167,80.1,82,89,11.03,RE,1675229374
434,aransas pass,27.9095,-97.15,40.98,93,100,16.11,US,1675229375
435,znamenskoye,57.1281,73.8282,7.21,92,61,5.57,RU,1675229376
436,miranda,3.2499,-76.2281,66.33,87,88,5.75,CO,1675229376
437,hebi,35.8992,114.1925,40.28,15,88,14.47,CN,1675229377
438,rumonge,-3.9736,29.4386,70.23,84,78,4.65,BI,1675229378
439,praia,14.9215,-23.5087,68.54,73,40,16.11,CV,1675229378
440,kamaishi,39.2667,141.8833,44.2,57,82,21.23,JP,1675229379
441,sale,34.0389,-6.8166,32.68,100,0,0.0,MA,1675229379
442,valladolid,41.5833,-4.6667,36.84,86,9,5.88,ES,1675229380
443,atikokan,48.7555,-91.6216,-17.0,100,82,3.44,CA,1675229381
444,elizabethton,36.3487,-82.2107,55.6,76,100,6.91,US,1675229382
445,asau,46.4333,26.4,25.72,87,74,7.63,RO,1675229383
446,hobyo,5.3505,48.5268,77.83,66,5,16.51,SO,1675229383
447,kaputa,-8.4689,29.6619,66.54,89,52,1.68,ZM,1675229384
448,palmer,42.1584,-72.3287,25.07,58,100,4.61,US,1675229384
449,skibbereen,51.55,-9.2667,49.1,78,100,17.02,IE,1675229385
450,portland,45.5234,-122.6762,37.26,72,100,4.61,US,1675229386
451,ugoofaaru,5.6667,73.0,80.37,75,100,12.53,MV,1675229387
452,verkhnevilyuysk,63.4453,120.3167,-20.09,97,100,8.7,RU,1675229387
453,clarksville,36.5298,-87.3595,27.34,92,100,9.22,US,1675229388
454,ngunguru,-35.6167,174.5,71.74,83,99,10.31,NZ,1675229316
455,vilhena,-12.7406,-60.1458,66.69,99,100,2.1,BR,1675229389
456,klodzko,50.4349,16.6614,39.34,89,84,14.88,PL,1675229390
457,samarai,-10.6167,150.6667,84.61,70,99,2.28,PG,1675229390
458,bilma,18.6853,12.9164,56.79,31,100,13.35,NE,1675229391
459,port blair,11.6667,92.75,86.04,70,20,6.91,IN,1675229391
460,abha,18.2164,42.5053,55.65,41,0,6.91,SA,1675229392
461,luba,3.4568,8.5547,78.69,81,35,3.31,GQ,1675229393
462,qandala,11.472000000000001,49.8728,74.26,66,26,5.77,SO,1675229394
463,filadelfia,39.9523,-75.1638,35.49,76,100,3.44,US,1675229149
464,phan thiet,10.9333,108.1,85.17,59,85,10.13,VN,1675229395
465,vilyuysk,63.7553,121.6247,-18.69,95,100,8.16,RU,1675229395
466,arroyo,41.6096,-4.7969,37.15,88,0,9.22,ES,1675229396
467,fomboni,-12.28,43.7425,82.26,74,88,9.4,KM,1675229396
468,alyangula,-13.8483,136.4192,87.17,66,100,3.27,AU,1675229145
469,maniitsoq,65.4167,-52.9,2.21,76,85,12.53,GL,1675229397
470,henties bay,-22.116,14.2845,63.18,88,100,5.61,,1675229398
471,nyaunglebin,17.95,96.7333,91.67,30,54,3.24,MM,1675229399
472,cacu,-18.5567,-51.1308,69.76,95,100,0.43,BR,1675229400
473,high level,58.5169,-117.13600000000001,-5.69,77,0,10.36,CA,1675229400
474,cumaral,4.2708,-73.4867,72.82,56,24,5.53,CO,1675229401
475,catamarca,-28.4696,-65.7852,72.41,62,5,14.12,AR,1675229221
476,tortoli,39.9256,9.6572,46.22,71,0,13.8,IT,1675229412
477,cairns,-16.9167,145.7667,85.95,79,40,9.22,AU,1675229155
478,vrangel,42.7297,133.0839,25.68,50,100,16.87,RU,1675229418
479,marsa matruh,31.3525,27.2453,50.2,81,40,17.27,EG,1675229419
480,roald,62.5833,6.1333,35.33,93,40,4.61,NO,1675229190
481,xai-xai,-25.0519,33.6442,78.49,67,99,5.5,MZ,1675229424
482,esperance,-33.8667,121.9,66.04,57,74,15.86,AU,1675229425
483,rudbar,30.15,62.6,65.59,33,4,21.68,AF,1675229427
484,constitucion,-35.3333,-72.4167,54.46,78,1,5.82,CL,1675229428
485,puerto madryn,-42.7692,-65.0385,59.7,70,0,16.78,AR,1675229429
486,tashla,51.7716,52.7427,4.23,89,55,7.34,RU,1675229429
487,araouane,18.9048,-3.5265,55.0,16,0,9.84,ML,1675229430
488,arlit,18.7369,7.3853,59.0,24,21,8.97,NE,1675229431
489,buin,-33.7333,-70.75,72.12,71,3,2.06,CL,1675229431
490,askino,56.0901,56.5783,12.72,91,92,7.23,RU,1675229433
491,zhoucheng,35.9122,116.3117,40.73,14,66,18.59,CN,1675229433
492,aitape,-3.1374,142.3475,84.15,70,70,6.64,PG,1675229434
493,inta,66.0317,60.1659,23.85,79,63,20.56,RU,1675229435
494,bang lamung,13.047,100.9289,91.85,44,66,7.92,TH,1675229435
495,te anau,-45.4167,167.7167,63.55,94,100,2.01,NZ,1675229417
496,fairbanks,64.8378,-147.7164,14.09,78,100,5.75,US,1675229436
497,sabha,27.0377,14.4283,42.21,58,0,9.01,LY,1675229437
498,imbituba,-28.24,-48.6703,72.54,84,3,3.33,BR,1675229438
499,orotukan,62.2667,151.7,-18.18,94,79,4.36,RU,1675229438
500,bambanglipuro,-7.95,110.2833,84.72,68,100,8.66,ID,1675229439
501,tomatlan,19.9333,-105.25,63.59,90,33,3.62,MX,1675229440
502,holme,56.1138,10.1725,37.18,91,96,18.7,DK,1675229440
503,lucapa,-8.4192,20.7447,65.84,93,98,3.22,AO,1675229441
504,bonavista,48.6499,-53.1147,22.87,91,100,31.83,CA,1675229442
505,ust-ilimsk,58.0006,102.6619,10.35,92,100,5.86,RU,1675229172
506,half moon bay,37.4636,-122.4286,51.01,50,0,8.05,US,1675229220
507,basco,20.4487,121.9702,75.72,72,96,13.91,PH,1675229443
508,luanda,-8.8368,13.2343,78.8,89,75,4.61,AO,1675229329
509,meadow lake,34.8014,-106.5436,36.39,57,9,4.94,US,1675229444
510,stornoway,58.2093,-6.3865,40.96,80,75,23.02,GB,1675229445
511,burns lake,54.2331,-125.7533,18.82,98,99,2.48,CA,1675229410
512,chizhou,30.6578,117.4831,61.77,33,0,14.34,CN,1675229446
513,saryg-sep,51.5,95.6,7.11,89,96,2.17,RU,1675229447
514,walvis bay,-22.9575,14.5053,64.09,82,100,1.14,,1675229376
515,carberry,49.8689,-99.3602,-12.77,95,8,6.15,CA,1675229448
516,nushki,29.5542,66.0215,63.12,20,0,5.79,PK,1675229449
517,norfolk,42.1668,-71.2495,26.08,54,0,8.05,US,1675229254
518,bulungu,-4.55,18.6,70.07,91,43,1.9,CD,1675229450
519,selfoss,63.9331,-20.9971,24.04,94,86,3.22,IS,1675229450
520,ternate,0.8,127.4,81.03,80,53,11.36,ID,1675229451
521,xuanhua,40.6103,115.0447,24.6,21,27,13.51,CN,1675229451
522,lhokseumawe,5.1801,97.1507,79.21,79,93,4.18,ID,1675229452
523,bathsheba,13.2167,-59.5167,75.81,78,20,8.05,BB,1675229453
524,ixtapa,20.7,-105.2,70.23,94,0,0.0,MX,1675229315
525,halifax,44.6453,-63.5724,21.47,79,95,7.0,CA,1675229279
526,ashqelon,31.6693,34.5715,53.49,72,80,24.94,IL,1675229454
527,port hawkesbury,45.6169,-61.3485,22.78,89,100,11.01,CA,1675229455
528,saint-cyr-sur-loire,47.4,0.6667,43.05,89,100,3.44,FR,1675229455
529,merauke,-8.4667,140.3333,84.92,73,100,10.36,ID,1675229456
530,maputo,-25.9653,32.5892,73.08,88,100,3.44,MZ,1675229456
531,kungurtug,50.5994,97.5228,10.6,83,22,1.34,RU,1675229457
532,ngara,-2.5122,30.6558,62.83,74,61,1.68,TZ,1675229458
533,san policarpo,12.1791,125.5072,81.45,82,15,12.01,PH,1675229458
534,preeceville,51.95,-102.6677,-19.14,100,38,4.45,CA,1675229459
535,diapaga,12.0708,1.7889,71.13,7,38,7.47,BF,1675229459
536,mozarlandia,-14.7447,-50.5706,71.24,91,53,0.72,BR,1675229460
537,sinjar,36.3209,41.8754,44.29,82,60,3.58,IQ,1675229461
538,manta,-0.95,-80.7333,78.58,83,20,6.91,EC,1675229190
539,cayenne,4.9333,-52.3333,73.44,100,75,2.3,GF,1675229463
540,san pedro,14.35,121.0167,87.35,63,20,12.66,PH,1675229170
541,oktyabrskiy,54.4815,53.471000000000004,9.19,92,38,5.41,RU,1675229464
542,saint-pierre,-21.3393,55.4781,81.18,74,100,13.8,RE,1675229349
543,lakatoro,-16.0999,167.4164,82.83,72,41,4.14,VU,1675229465
544,salisbury,51.0693,-1.7957,43.81,83,75,10.36,GB,1675229413
545,mogzon,51.7435,111.9606,9.01,66,47,9.48,RU,1675229466
546,nabire,-3.3667,135.4833,83.41,71,99,3.71,ID,1675229468
547,kibre mengist,5.8833,38.9833,69.06,45,3,3.22,ET,1675229469
548,saba,15.4667,-86.25,64.44,97,17,2.73,HN,1675229469
549,geraldton,-28.7667,114.6,91.81,33,0,21.85,AU,1675229470
550,coihaique,-45.5752,-72.0662,54.21,76,0,3.44,CL,1675229352
551,puerto escondido,15.85,-97.0667,77.83,78,40,0.0,MX,1675229338
552,north platte,41.1239,-100.7654,3.09,78,0,4.61,US,1675229473
553,hambantota,6.1241,81.1185,86.34,79,40,2.3,LK,1675229474
554,paternion,46.7142,13.6361,33.8,87,4,3.91,AT,1675229475
555,tobol,52.6844,62.5794,5.07,92,61,5.26,KZ,1675229477
556,erdenet,49.0333,104.0833,7.79,78,66,3.49,MN,1675229478
557,matara,5.9485,80.5353,84.36,65,82,10.07,LK,1675229480
558,necochea,-38.5473,-58.7368,64.87,85,100,5.61,AR,1675229481
559,shubarkuduk,49.1447,56.4872,8.96,80,19,8.99,KZ,1675229353
560,vostok,46.4856,135.8833,8.28,87,100,7.16,RU,1675229483
561,haines junction,60.7522,-137.5108,5.38,99,95,1.57,CA,1675229484
562,meulaboh,4.1363,96.1285,84.94,60,86,5.57,ID,1675229485
563,sola,-13.8833,167.55,82.18,69,97,5.46,VU,1675229485
564,svetlyy,54.675,20.1347,38.97,92,100,27.38,RU,1675229486
565,christchurch,-43.5333,172.6333,71.8,68,20,16.11,NZ,1675229280
566,sembakung,3.8167,117.25,81.68,79,98,1.21,ID,1675229487
567,pokosnoye,55.5258,101.0536,12.81,87,100,4.52,RU,1675229488
568,karpathos,35.507,27.2132,48.16,61,51,23.02,GR,1675229489
569,pumiao,22.75,108.4833,72.0,73,100,10.18,CN,1675229489
570,panjab,34.388000000000005,67.0233,23.22,89,99,5.08,AF,1675229490
571,marica,-22.9194,-42.8186,78.75,84,100,4.63,BR,1675229491
572,hospet,15.2667,76.4,83.3,39,67,12.59,IN,1675229491
573,marang,5.2056,103.2059,81.97,78,98,8.86,MY,1675229492
574,gonbad-e qabus,37.25,55.1672,45.55,88,100,7.7,IR,1675229493
